District code,District name,State name,Population,Male,Female,Literate,Households_with_Internet,Housholds_with_Electric_Lighting,Latitude,Longitude,Sex Ratio,Literacy Rate
532,Adilabad,ANDHRA PRADESH,2741239,1369597,1371642,1483347,5512,566108,19.284513950073435,78.81321233480176,1001.4931399528475,54.112282803506005
553,Anantapur,ANDHRA PRADESH,4081148,2064495,2016653,2310960,8606,897970,14.312065561843148,77.4601584478577,976.8262940816035,56.62524368143473
554,Chittoor,ANDHRA PRADESH,4174064,2090204,2083860,2667878,13763,944555,13.33109263067696,78.92763898886037,996.9648895514505,63.915598802509976
545,East Godavari,ANDHRA PRADESH,5154296,2569688,2584608,3288577,22411,1297273,16.782718320784902,82.2432074720511,1005.8061523422299,63.80264152466215
548,Guntur,ANDHRA PRADESH,4887813,2440521,2447292,2960441,19383,1186028,15.884925767634847,80.58657614107885,1002.7744075957552,60.56780404651324
536,Hyderabad,ANDHRA PRADESH,3943323,2018575,1924748,2892155,149034,869721,17.38971555555556,78.46668888888888,953.5181997200996,73.34309160066269
534,Karimnagar,ANDHRA PRADESH,3776269,1880800,1895469,2206829,8831,926768,18.515483193277312,79.43765428571413,1007.7993407060826,58.43940143035361
541,Khammam,ANDHRA PRADESH,2797370,1390988,1406382,1630234,8628,668519,17.683921325051784,80.67008643892335,1011.0669538486314,58.27738196949277
547,Krishna,ANDHRA PRADESH,4517398,2267375,2250023,3009718,30438,1163932,16.143872753151673,81.14805061000413,992.347097414411,66.62503503122815
552,Kurnool,ANDHRA PRADESH,4053463,2039227,2014236,2127161,10081,816721,15.43759715142429,77.90086836581717,987.7448660693489,52.47762222080231
538,Mahbubnagar,ANDHRA PRADESH,4053028,2050386,2002642,1940646,6153,757821,16.639546224256293,77.98933089244859,976.7146283675366,47.881386459703705
535,Medak,ANDHRA PRADESH,3033288,1523030,1510258,1637137,8635,604719,17.889304978038055,78.13778901903379,991.6140850803989,53.972356070376435
539,Nalgonda,ANDHRA PRADESH,3488809,1759772,1729037,2001019,7715,789225,17.113250515463907,79.16984453608244,982.5346692639728,57.35536109887357
533,Nizamabad,ANDHRA PRADESH,2551335,1250641,1300694,1389810,5261,545913,18.429485849056604,78.07523490566035,1040.0218767815863,54.47383428675576
549,Prakasam,ANDHRA PRADESH,3397448,1714764,1682684,1904435,6151,763746,15.489039001601704,80.11665790176184,981.2918862304084,56.054868242280676
542,Srikakulam,ANDHRA PRADESH,2703114,1341738,1361376,1495381,3988,615432,18.570900998697432,84.25874814010675,1014.6362404582713,55.32067829917643
543,Vizianagaram,ANDHRA PRADESH,2344474,1161477,1182997,1238388,4453,527736,18.28329696032972,83.45982854198873,1018.5281327137774,52.82157106455435
540,Warangal,ANDHRA PRADESH,3512576,1759281,1753295,2065023,12952,828077,18.01752608695651,79.87422028985509,996.5974736270101,58.78941836418628
546,West Godavari,ANDHRA PRADESH,3936966,1964918,1972048,2652389,12050,1017568,16.63297943925236,81.45912990654196,1003.6286501523219,67.37139716218022
253,Changlang,ARUNACHAL PRADESH,148226,76948,71278,73174,170,14593,27.36048479338845,96.37552644628106,926.3138743047252,49.3665079000985
247,East Kameng,ARUNACHAL PRADESH,78690,38775,39915,38449,57,5318,27.371194055944056,93.04741486013997,1029.4003868471953,48.861354682933026
251,East Siang,ARUNACHAL PRADESH,99214,50116,49098,62576,450,14231,28.15382352941176,95.06499226006191,979.6871258679862,63.07174390710988
256,Kurung Kumey,ARUNACHAL PRADESH,92076,45318,46758,36606,95,3911,28.04853351800553,93.24531994459834,1031.7754534622004,39.756288283591815
259,Lohit,ARUNACHAL PRADESH,145726,76221,69505,83062,312,17157,27.946785273972623,96.59670770547945,911.887799950145,56.998751080795465
258,Lower Dibang Valley,ARUNACHAL PRADESH,54080,28053,26027,31849,207,5932,28.32651730103806,95.76567335640142,927.7795601183474,58.89238165680474
255,Lower Subansiri,ARUNACHAL PRADESH,83030,41843,41187,54057,381,12493,27.70849297297297,93.96226108108112,984.3223478240088,65.1053835962905
248,Papum Pare,ARUNACHAL PRADESH,176573,89182,87391,121048,2477,30539,27.273529716981127,93.54468183962264,979.9174721356327,68.55408244748631
245,Tawang,ARUNACHAL PRADESH,49977,29151,20826,26073,96,8635,27.680683962264148,91.82504245283016,714.418030256252,52.169998199171616
254,Tirap,ARUNACHAL PRADESH,111975,57604,54371,47974,98,16026,26.94406229508198,95.41470327868862,943.8754253176863,42.843491850859564
252,Upper Siang,ARUNACHAL PRADESH,35320,18699,16621,18195,97,6198,28.8309244897959,95.00155765306124,888.8710626236697,51.514722536806346
249,Upper Subansiri,ARUNACHAL PRADESH,83448,41758,41690,45278,139,5373,28.277196566523585,93.8991435622318,998.371569519613,54.25893969897421
246,West Kameng,ARUNACHAL PRADESH,83947,46155,37792,48492,202,14188,27.46486582278483,92.65015750452083,818.8061965117539,57.76501840446948
250,West Siang,ARUNACHAL PRADESH,112274,58168,54106,64746,303,14204,28.106296920289843,94.53510344202908,930.1677898500894,57.66784829969539
303,Barpeta,ASSAM,1693622,867004,826618,897058,2078,84804,26.427872264631056,90.97912010178116,953.4189000281428,52.9668367557814
319,Bongaigaon,ASSAM,738804,375818,362986,434078,2523,49866,26.45012521994133,90.6734296187684,965.8558131861698,58.75414859692151
316,Cachar,ASSAM,1736617,886284,850333,1174128,5316,140205,24.815570668693017,92.86849650455927,959.4362529392384,67.61007176596797
325,Darrang,ASSAM,928500,475273,453227,487039,1166,45444,26.58463215962442,92.04141338028155,953.6140281480328,52.4543887991384
308,Dhemaji,ASSAM,686133,351249,334884,423028,1192,28195,27.586533438485816,94.71336908517353,953.4091200259644,61.65393589872517
310,Dibrugarh,ASSAM,1326335,676434,649901,884531,8817,136685,27.30612284482757,95.0998282327587,960.7751827968435,66.68986342062902
302,Goalpara,ASSAM,1008183,513292,494891,563577,1364,78641,26.017277777777807,90.59869891598912,964.1510095618089,55.90026810608788
313,Golaghat,ASSAM,1066888,543161,523727,721764,3073,82345,26.377219709794485,93.82583397823468,964.220553390247,67.6513373475004
318,Hailakandi,ASSAM,659296,337890,321406,407366,1211,44143,24.457496089385486,92.59154664804475,951.2148924206103,61.78802844245984
312,Jorhat,ASSAM,1092256,556805,535451,794929,5651,122063,26.76244824016563,94.30197722567289,961.6490512836631,72.7786343128351
321,Kamrup,ASSAM,1517542,778461,739081,995319,3109,122191,26.170939452054807,91.58863273972592,949.4130084872588,65.58757517090137
314,Karbi Anglong,ASSAM,956313,490167,466146,557214,1923,53918,26.08966454598031,93.11536570271832,950.9942529790867,58.26690633715113
317,Karimganj,ASSAM,1228686,625864,602822,795297,1933,70951,24.69660712250711,92.3679498575498,963.1836948602253,64.72744053403392
300,Kokrajhar,ASSAM,887142,452905,434237,489305,1218,41373,26.497246635730868,90.13997470997688,958.7816429494044,55.15520626912039
307,Lakhimpur,ASSAM,1042137,529674,512463,683486,1948,60296,27.14128805970149,94.0775949253732,967.5064284824251,65.58504304136596
305,Nagaon,ASSAM,2823768,1439112,1384656,1710716,5121,195631,26.26462170626351,92.9306191144708,962.1599986658439,60.582739091880065
323,Nalbari,ASSAM,771639,396006,375633,531771,1631,68313,26.46323767605632,91.40598521126763,948.5538097907607,68.91447943921963
306,Sonitpur,ASSAM,1924110,983904,940206,1108572,4358,133368,26.73514926829268,92.85197804878044,955.5871304517514,57.614793333021495
309,Tinsukia,ASSAM,1327929,680231,647698,798322,5135,161718,27.53549291139241,95.69055949367085,952.173599850639,60.11782256430879
209,Araria,BIHAR,2811569,1463333,1348236,1195768,2561,43290,26.211528119180603,87.30766554934816,921.3459957507963,42.530274021373835
235,Aurangabad,BIHAR,2540073,1318684,1221389,1466002,2362,44456,24.774291867469877,84.45986024096379,926.218108356513,57.71495543632014
515,Aurangabad,MAHARASHTRA,3701282,1924469,1776813,2503837,23258,589477,24.774291867469877,84.45986024096379,923.2744201127687,67.64783121091557
225,Banka,BIHAR,2034763,1067140,967623,965321,1704,62359,24.832355642023337,86.8664916342413,906.7441947635737,47.44144649770023
222,Begusarai,BIHAR,2970541,1567660,1402881,1548673,4644,120373,25.54302613168723,86.12560144032932,894.888560019392,52.13437552284247
224,Bhagalpur,BIHAR,3037766,1615663,1422103,1573066,6764,174534,25.277192885375477,87.04213814229242,880.1977887715445,51.78364627163514
231,Bhojpur,BIHAR,2728407,1430380,1298027,1599151,3661,62153,25.50666439393939,84.49407803030304,907.4700429256561,58.61116028510409
232,Buxar,BIHAR,1706352,887977,818375,989807,1784,46760,25.48593018867924,84.08808081760995,921.6173391878393,58.00719898356259
215,Darbhanga,BIHAR,3937385,2059949,1877436,1816634,6280,127442,26.146187719298258,85.97387352472099,911.3992627972829,46.138084032930486
236,Gaya,BIHAR,4391418,2266566,2124852,2297613,6856,112617,24.7266541547278,84.94291217765044,937.4763408610206,52.32052608064184
217,Gopalganj,BIHAR,2562012,1267666,1294346,1382998,3707,69375,26.44874364161851,84.34636127167629,1021.0465532719186,53.98093373489273
238,Jamui,BIHAR,1760405,916064,844341,858588,1839,32633,24.78418380462726,86.26316298200514,921.7052520347924,48.77218594584769
239,Jehanabad,BIHAR,1125313,585582,539731,618881,1106,27641,25.155679045643165,84.9208124481328,921.7001205638151,54.99634323961422
212,Katihar,BIHAR,3071029,1600430,1470599,1280190,2941,60900,25.56565356037151,87.70466083591326,918.8774266915767,41.68602771253544
223,Khagaria,BIHAR,1666886,883786,783100,768028,1580,40641,25.53558891454964,86.56593256351037,886.0742306395439,46.07561644887533
210,Kishanganj,BIHAR,1690400,866970,823430,745056,1093,58718,26.324336758321294,87.95045007235886,949.7791157710186,44.07572172266919
227,Lakhisarai,BIHAR,1000912,526345,474567,507270,1186,44491,25.183449321266963,86.12825701357468,901.6272596870873,50.68077912943396
213,Madhepura,BIHAR,2001762,1047559,954203,834577,1397,23236,25.77341929460581,86.8978443983403,910.8823464835871,41.692119242946966
207,Madhubani,BIHAR,4487379,2329313,2158066,2155338,5319,113281,26.41380538172716,86.16328360450552,926.481756638116,48.03111125670464
226,Munger,BIHAR,1367765,729041,638724,801817,2653,90461,25.198537962962963,86.54173672839504,876.1153350771767,58.62242417374329
216,Muzaffarpur,BIHAR,4801062,2527497,2273565,2509232,10290,180651,26.18664417177915,85.32745092024543,899.5322249640652,52.264103233826184
229,Nalanda,BIHAR,2877653,1497060,1380593,1519933,4156,101378,25.229345508982053,85.48053113772461,922.2028509211387,52.818494794195125
237,Nawada,BIHAR,2219146,1144668,1074478,1091012,1841,31162,24.825708836206903,85.61594568965519,938.6809100979499,49.163597167559054
203,Pashchim Champaran,BIHAR,3935042,2061110,1873932,1759481,3495,57546,27.16064352201258,84.30265911949685,909.1858270543543,44.713144103671574
230,Patna,BIHAR,5838465,3078512,2759953,3459679,40692,546859,25.40297114503818,85.3198433587787,896.5217611625357,59.25665393215511
204,Purba Champaran,BIHAR,5099371,2681209,2418162,2276957,7719,74979,26.68129336734693,85.00382155612242,901.8923925736487,44.65172273207813
211,Purnia,BIHAR,3264619,1699370,1565249,1332326,4170,86058,25.81714801901739,87.40447606973065,921.0760458287482,40.81107167482637
234,Rohtas,BIHAR,2959918,1543546,1416372,1799832,4594,114893,24.99170460829495,83.9350762672811,917.609193376809,60.806819648382145
214,Saharsa,BIHAR,1900661,997174,903487,804996,1668,41342,25.821270696721303,86.54670819672135,906.0474902073258,42.35347597493714
221,Samastipur,BIHAR,4261566,2230003,2031563,2142880,5379,88021,25.793205563909765,85.94833323308269,911.0135726274807,50.28386278659066
219,Saran,BIHAR,3951862,2022821,1929041,2157454,4509,94787,25.89656077844312,84.82266287425155,953.6390021657872,54.59335371528662
228,Sheikhpura,BIHAR,636342,329743,306599,328676,631,20065,25.12472436548223,85.77839390862943,929.8120051070076,51.65084184290837
205,Sheohar,BIHAR,656246,346673,309573,283698,478,10004,26.458380748663107,85.29539411764709,892.9827243540743,43.23043492836528
206,Sitamarhi,BIHAR,3423574,1803252,1620322,1436794,3460,66263,26.56570069686413,85.61172491289203,898.5554986213796,41.96766303284229
218,Siwan,BIHAR,3330464,1675090,1655374,1930175,3834,52935,26.1736372013652,84.33766552901022,988.2298861553708,57.95513778260326
208,Supaul,BIHAR,2229076,1155283,1073793,1033283,1845,51028,26.28157893772896,86.78496465201461,929.4631704958871,46.35476762568885
220,Vaishali,BIHAR,3495021,1844535,1650486,1926740,4810,70001,25.8134703180212,85.39247597173153,894.7978758874187,55.12813799974307
55,Chandigarh,CHANDIGARH,1055450,580663,474787,805438,44283,231204,30.7426,76.75872465753424,817.6636017793454,76.31228385996495
414,Bastar,CHHATTISGARH,1413199,698487,714712,650863,1782,157646,19.393866751269048,81.52895126903546,1023.2287787746945,46.05600485140451
30,Bilaspur,HIMACHAL PRADESH,381956,192764,189192,287620,1574,79146,22.356942982456143,81.99770350877188,981.469569006661,75.3018672307805
406,Bilaspur,CHHATTISGARH,2663629,1351574,1312055,1596560,8566,519704,22.356942982456143,81.99770350877188,970.7607574576012,59.939278330428145
412,Dhamtari,CHHATTISGARH,799781,397897,401884,546833,1016,148926,20.554912627291245,81.7569195519348,1010.0201811021445,68.37284206551544
409,Durg,CHHATTISGARH,3343872,1682101,1661771,2303378,16141,614109,21.194463849287164,81.33181639511197,987.9139243125115,68.88355774383709
402,Jashpur,CHHATTISGARH,851669,424747,426922,495415,567,76783,22.77286167664669,83.8703962075848,1005.1206953786607,58.16989933882765
404,Korba,CHHATTISGARH,1206640,612915,593725,748759,4544,202380,22.491712499999995,82.57604326923074,968.6906014700244,62.05322217065571
400,Koriya,CHHATTISGARH,658917,334737,324180,397823,1667,80023,23.50412776859501,82.12515636363635,968.4618073293361,60.375282471085136
411,Mahasamund,CHHATTISGARH,1032754,511967,520787,637963,961,212487,21.223727037773354,82.65925427435384,1017.2276728773535,61.772987565286606
403,Raigarh,CHHATTISGARH,1493984,750278,743706,951639,3342,297308,22.008265068493166,83.27797698630134,991.240580158288,63.6980717330306
520,Raigarh,MAHARASHTRA,2634200,1344345,1289855,1939994,38570,547206,22.008265068493166,83.27797698630134,959.4672498502988,73.64642016551515
410,Raipur,CHHATTISGARH,4063872,2048186,2015686,2629749,20261,728556,20.88603153846152,82.20032759615388,984.1323004844287,64.71042887177549
401,Surguja,CHHATTISGARH,2359886,1193129,1166757,1187941,2737,253131,23.32719278728607,83.23582493887531,977.8967739448124,50.33891467638691
495,Daman,DAMAN AND DIU,191173,124659,66514,150348,1316,49249,20.431616666666677,72.8392366071429,533.5675723373362,78.64499693994445
479,Junagadh,GUJARAT,2743082,1404356,1338726,1842818,6628,498326,20.72568199498111,70.83985639899612,953.2668354747657,67.18056550988997
585,North Goa,GOA,818008,416677,401331,663060,23440,173951,15.548723418714054,73.80667997909038,963.1705133712684,81.05788696443066
586,South Goa,GOA,640537,322463,318074,502427,17624,138810,15.195278658183785,73.941792596877,986.3891361179423,78.43840402662141
474,Ahmadabad,GUJARAT,7214225,3788051,3426174,5435760,126341,1456046,22.605425564971743,72.23898135593227,904.4688152297844,75.34780243200066
480,Amreli,GUJARAT,1514190,771049,743141,995459,2538,273331,21.04832649310872,71.43457637825426,963.805153758062,65.74201388200952
482,Anand,GUJARAT,2092745,1087224,1005521,1551253,9902,378310,22.282718206229863,72.57782051557454,924.8517324856699,74.12527565470232
469,Banas Kantha,GUJARAT,3120506,1610379,1510127,1704923,3424,396873,24.258538965517253,71.93205252873561,937.7463317641375,54.63610709288814
488,Bharuch,GUJARAT,1551019,805707,745312,1118276,10257,309091,21.75787276237761,72.67326346710801,925.0409888458211,72.09943914291186
481,Bhavnagar,GUJARAT,2880365,1490201,1390164,1887255,7297,500757,21.70219390341736,72.16272632761141,932.8701295999667,65.52138357465113
473,Gandhinagar,GUJARAT,1391753,723864,667889,1030494,12107,262539,23.193679790026252,72.67221679790026,922.6719383751644,74.04287973512541
477,Jamnagar,GUJARAT,2160119,1114192,1045927,1396534,11573,386538,22.410600414263328,69.62062005768233,938.7313856139697,64.65079007221361
479,Junagadh,GUJARAT,2743082,1404356,1338726,1842818,6628,498326,20.929523011609785,70.54733890140345,953.2668354747657,67.18056550988997
468,Kachchh,GUJARAT,2092371,1096737,995634,1252319,9631,403294,23.48057203301311,68.82192301497916,907.8147267758816,59.851670664523645
483,Kheda,GUJARAT,2299885,1185727,1114158,1660243,5710,372226,22.88765312500002,73.018803515625,939.6412496299739,72.18808766525284
471,Mahesana,GUJARAT,2035064,1056520,978544,1502645,7759,385609,23.529355452865065,72.45545194085031,926.1954340665582,73.83772697074883
487,Narmada,GUJARAT,590297,301086,289211,370336,576,101940,21.70666386292833,73.68403208722742,960.5594414884783,62.73723227460075
490,Navsari,GUJARAT,1329672,678165,651507,1001909,6726,267679,20.866973318871995,72.86184869848157,960.6909822830727,75.35008633708162
484,Panch Mahals,GUJARAT,2390776,1226961,1163815,1440805,3456,398937,22.80435606837605,73.61984598290586,948.5346315001048,60.26516076788457
470,Patan,GUJARAT,1343734,694397,649337,837913,2231,223424,23.80634198473284,71.75162977099237,935.1091666582661,62.3570587631183
478,Porbandar,GUJARAT,585449,300209,285240,393678,1653,117040,21.55092351651571,69.71896987722886,950.1380704775672,67.24377358232742
476,Rajkot,GUJARAT,3804558,1974445,1830113,2725056,21785,747352,22.40603377715488,70.83679439383323,926.8999642937636,71.62608639426709
472,Sabar Kantha,GUJARAT,2428589,1244231,1184358,1578734,5262,438606,23.71803594548552,73.13638790459964,951.8795143345569,65.00622377849854
492,Surat,GUJARAT,6081322,3402224,2679098,4571410,55694,1252452,21.25761372772093,72.93488716344339,787.4549118458984,75.17131965714033
475,Surendranagar,GUJARAT,1756268,909917,846351,1093626,2975,302068,22.82672007299272,71.48358740875906,930.1408809814523,62.269881362070024
489,The Dangs,GUJARAT,228291,113821,114470,140968,137,29794,20.801633877551023,73.6883518367347,1005.7019354952075,61.749258621671466
486,Vadodara,GUJARAT,4165626,2153736,2011890,2893080,53606,798277,22.26133739279589,73.49433010291594,934.1395602803686,69.45126614823319
491,Valsad,GUJARAT,1705678,887222,818456,1170657,11020,329218,20.44238231644259,72.9148584798345,922.4929048197633,68.63294244282918
70,Ambala,HARYANA,1128350,598703,529647,818025,12899,199681,30.3503672316384,76.94970310734456,884.6573342709156,72.49745203172775
81,Bhiwani,HARYANA,1634445,866672,767773,1069871,5292,266244,28.728868064516128,76.02110225806452,885.8864714678679,65.45775477302693
88,Faridabad,HARYANA,1809733,966110,843623,1272739,43437,333171,28.14873109756098,77.32718536585368,873.2163004212771,70.32744609287668
78,Fatehabad,HARYANA,942011,495360,446651,557578,3210,153301,29.57298318584072,75.54608716814157,901.6694928940568,59.19017930788494
86,Gurgaon,HARYANA,1514432,816690,697742,1111116,67087,305751,28.043894789579163,77.01935130260523,854.3535490822711,73.3684972319655
80,Hisar,HARYANA,1743931,931562,812369,1114311,10132,285004,29.23628731117825,75.84324682779452,872.05038419343,63.89650737328484
83,Jhajjar,HARYANA,958405,514667,443738,676091,5034,168558,28.59651868131869,76.61137142857145,862.1846747508583,70.5433506711672
77,Jind,HARYANA,1334152,713006,621146,832758,5263,222462,29.45149821958457,76.29598575667653,871.1651795356561,62.41852502563427
73,Kaithal,HARYANA,1074304,571003,503301,646529,3724,187349,29.96068539094649,76.37698930041155,881.4331973737442,60.18119638389133
74,Karnal,HARYANA,1505324,797712,707612,978013,11163,267223,29.703200647249204,76.87488025889972,887.0519686302825,64.97026553751883
72,Kurukshetra,HARYANA,964655,510976,453679,646893,7356,171908,30.05652659846548,76.78774680306903,887.8675319388778,67.05951868802836
84,Mahendragarh,HARYANA,922088,486665,435423,630255,2624,135455,28.1352161458333,76.14018072916659,894.7078585885569,68.35085154562255
69,Panchkula,HARYANA,561293,299679,261614,405318,18615,103455,30.700897142857134,76.97173238095236,872.9807560756676,72.2114831291322
75,Panipat,HARYANA,1205437,646857,558580,786599,10024,209965,29.34352134146342,76.92895914634147,863.52934265224,65.25426048810515
85,Rewari,HARYANA,900332,474335,425997,636947,5121,152651,28.19164714828897,76.55956007604564,898.0931198414622,70.74579155244955
82,Rohtak,HARYANA,1061204,568479,492725,747582,8482,193120,28.892517647058817,76.53123235294117,866.7426589196787,70.44658708410448
79,Sirsa,HARYANA,1295189,682582,612607,782897,6287,215527,29.63583446327684,74.90970480225988,897.4848443117456,60.446544867196984
30,Bilaspur,HIMACHAL PRADESH,381956,192764,189192,287620,1574,79146,31.3780422907489,76.65316079295157,981.469569006661,75.3018672307805
406,Bilaspur,CHHATTISGARH,2663629,1351574,1312055,1596560,8566,519704,31.3780422907489,76.65316079295157,970.7607574576012,59.939278330428145
23,Chamba,HIMACHAL PRADESH,519080,261320,257760,323842,1615,96082,32.66741814595661,76.39354063116366,986.3768559620388,62.3876859058334
28,Hamirpur,HIMACHAL PRADESH,454768,217070,237698,358091,2521,104120,31.67668481012659,76.49767088607594,1095.0292532362832,78.74146817718045
168,Hamirpur,UTTAR PRADESH,1104285,593537,510748,653299,1196,55929,31.67668481012659,76.49767088607594,860.5158566357278,59.16036168199332
24,Kangra,HIMACHAL PRADESH,1510075,750591,759484,1152640,8053,330081,32.14093603238864,76.41205910931173,1011.8479971116094,76.32998361008559
34,Kinnaur,HIMACHAL PRADESH,84121,46249,37872,60699,354,17865,31.60667184065933,78.51613736263741,818.8717593893922,72.15677417054005
26,Kullu,HIMACHAL PRADESH,437903,225452,212451,307672,2623,91322,31.90911922077925,77.40922649350647,942.3336231215513,70.26030878984615
27,Mandi,HIMACHAL PRADESH,999777,498065,501712,723747,5333,214491,31.635805940594054,76.96556930693067,1007.3223374459157,72.39084315802424
33,Shimla,HIMACHAL PRADESH,814010,425039,388971,612642,9177,172754,31.155725451807253,77.62573042168668,915.1419046252227,75.26222036584316
32,Sirmaur,HIMACHAL PRADESH,529855,276289,253566,362645,2220,91509,30.682764453961443,77.43184689507493,917.7564072402448,68.44230968849968
31,Solan,HIMACHAL PRADESH,580320,308754,271566,428578,5250,119866,31.03864311926604,76.94442140672783,879.5545968635224,73.85201268265784
29,Una,HIMACHAL PRADESH,521173,263692,257481,399715,2412,105929,31.58330388349513,76.18353932038836,976.4460051878707,76.69526241766171
16,Doda,JAMMU AND KASHMIR,409936,213641,196295,219083,596,61831,33.359614675767915,76.07163720136518,918.8077194920451,53.443220405136415
21,Jammu,JAMMU AND KASHMIR,1529958,813821,716137,1137135,19905,294739,32.713199095022645,74.8477520361991,879.9686909037737,74.32458930245144
4,Kargil,JAMMU AND KASHMIR,140802,77785,63017,86236,235,15824,33.565994894894914,76.63675315315312,810.1433438323584,61.246289115211425
7,Kathua,JAMMU AND KASHMIR,616435,326109,290326,389204,1443,109422,32.51781678321678,75.58901398601404,890.2728842196934,63.1378815284661
12,Pulwama,JAMMU AND KASHMIR,560440,293064,267376,293958,1537,73629,33.88414418604652,75.00921860465118,912.3467911445964,52.451288273499394
5,Punch,JAMMU AND KASHMIR,476835,251899,224936,261724,346,62900,33.791241290322574,74.29593161290322,892.9610677295266,54.88774943114495
10,Srinagar,JAMMU AND KASHMIR,1236829,651124,585705,748584,16413,165403,34.27312898550724,75.11021159420288,899.5291219491219,60.52445406761969
19,Udhampur,JAMMU AND KASHMIR,554985,296784,258201,322354,1214,73999,33.04770670731707,75.15286951219511,869.9963609898108,58.083371622656465
355,Bokaro,JHARKHAND,2062330,1072807,989523,1273520,9754,274726,23.6814965034965,85.98398374125864,922.3681426388903,61.75151406418953
347,Chatra,JHARKHAND,1042886,533935,508951,510061,590,27037,24.11619945750453,84.93295804701627,953.2077874647663,48.908605542695945
350,Deoghar,JHARKHAND,1492073,775022,717051,793538,1944,130193,24.33070100755672,86.75697632241814,925.2008330086113,53.18359088328788
354,Dhanbad,JHARKHAND,2684487,1405956,1278531,1722204,11568,427173,23.854509090909097,86.40372924901185,909.3677184776764,64.15393332133849
362,Dumka,JHARKHAND,1321442,668514,652928,672409,1193,62110,24.275006125574265,87.27662450229711,976.6856041907873,50.88448830898366
346,Garhwa,JHARKHAND,1322784,683575,639209,653476,565,29373,24.082114689265527,83.68664265536722,935.097099806166,49.4015651837337
349,Giridih,JHARKHAND,2445474,1258098,1187376,1253475,1944,125431,24.30578509874329,86.08710915619386,943.7865730650553,51.256934238515726
351,Godda,JHARKHAND,1313551,677927,635624,604519,874,43230,24.8189,87.2941735483871,937.5994760497812,46.02173802159185
366,Gumla,JHARKHAND,1025213,514390,510823,559720,831,31687,23.078532948929148,84.55056787479396,993.0655728144015,54.5954840603855
363,Jamtara,JHARKHAND,791042,404830,386212,426312,808,49419,23.97873318077801,86.95325080091534,954.01032532174,53.89246083014555
359,Latehar,JHARKHAND,726978,369666,357312,350682,340,38194,23.72511185840708,84.48298743362837,966.5806430669847,48.23832358063105
356,Lohardaga,JHARKHAND,461790,232629,229161,259707,351,28769,23.488796043165483,84.6605169064748,985.0921424242034,56.239199636198265
353,Pakur,JHARKHAND,900422,452661,447761,352881,328,31414,24.57260428082189,87.69691969178076,989.1751222217068,39.19062395188034
358,Palamu,JHARKHAND,1939869,1006302,933567,1024563,2155,68238,24.196925968109337,84.20310842824594,927.720505375126,52.81609222066026
364,Ranchi,JHARKHAND,2914253,1494937,1419316,1911433,22538,350908,23.184235061391547,85.31781937244203,949.4152596397039,65.58912352496506
352,Sahibganj,JHARKHAND,1150567,589391,561176,483263,591,34879,24.93667989690721,87.68264097938142,952.1285530318582,42.00216067382429
367,Simdega,JHARKHAND,599578,300309,299269,343483,423,16865,22.608760391198054,84.59193691931536,996.5369003259975,57.28745884605506
556,Bagalkot,KARNATAKA,1889752,950111,939641,1113412,3745,301389,16.15860676328503,75.64526070853468,988.9802349409701,58.9184189248113
583,Bangalore Rural,KARNATAKA,990923,509172,481751,688749,3729,214253,12.936827087794448,77.47369314775169,946.1458996174181,69.50580418458347
555,Belgaum,KARNATAKA,4779661,2423063,2356598,3052032,17560,808827,16.16107219152853,74.72329042357275,972.5698423854435,63.85457043920061
565,Bellary,KARNATAKA,2452595,1236954,1215641,1421621,9626,440374,15.074377548209377,76.47228471074374,982.7697715517311,57.96395246667305
558,Bidar,KARNATAKA,1703300,870665,832635,1042673,3971,271439,17.950361730769224,77.19459961538459,956.320743339861,61.21487700346386
417,Bijapur,CHHATTISGARH,255230,128663,126567,86919,117,12516,16.84015316666667,75.95909166666665,983.7093803191283,34.05516592877013
557,Bijapur,KARNATAKA,2177331,1111022,1066309,1248268,4987,326594,16.84015316666667,75.95909166666665,959.755072356803,57.330190035414915
570,Chikmagalur,KARNATAKA,1137961,566622,571339,818345,4510,238505,13.425288289676422,75.67626502311249,1008.324773835114,71.91327295047897
566,Chitradurga,KARNATAKA,1659456,840843,818613,1087392,5711,307257,14.29102220394736,76.57821957236843,973.5622464598029,65.52701608237881
567,Davanagere,KARNATAKA,1945497,986400,959097,1308540,7320,372671,14.330414586709884,75.91723841166937,972.3205596107056,67.25993409396159
562,Dharwad,KARNATAKA,1847023,937206,909817,1301664,15013,347962,15.343831376975173,75.13831264108359,970.7759019895306,70.47362160622797
561,Gadag,KARNATAKA,1064570,537147,527423,700177,3373,198064,15.507128256880746,75.64861302752298,981.8969481352405,65.77087462543562
579,Gulbarga,KARNATAKA,2566326,1301755,1264571,1427368,9752,404767,17.070459515951594,76.87503850385033,971.435485171941,55.61912243417243
574,Hassan,KARNATAKA,1776421,883667,892754,1225256,4851,400702,12.945098749999998,76.11049549999997,1010.2832854457617,68.9732895524203
564,Haveri,KARNATAKA,1597668,819128,778540,1085443,2456,295937,14.737582809224318,75.3961230607966,950.4497465597562,67.93920889696733
576,Kodagu,KARNATAKA,554519,274608,279911,412877,3308,113931,12.39684468085106,75.79336595744688,1019.311163549496,74.4567814628534
581,Kolar,KARNATAKA,1536401,776396,760005,1016219,5051,309494,13.312799881235172,78.01376947743476,978.8883507900607,66.14282339050807
560,Koppal,KARNATAKA,1389920,699926,689994,809085,2135,223166,15.651253271028034,76.1617048598131,985.8099284781534,58.210904224703576
573,Mandya,KARNATAKA,1805769,905085,900684,1149649,3367,391033,12.574901806239744,76.81570098522172,995.1374732759907,63.66534146947921
577,Mysore,KARNATAKA,3001127,1511600,1489527,1962180,28397,640868,12.248100259403367,76.52881802853437,985.3975919555438,65.38143837298455
559,Raichur,KARNATAKA,1928812,964511,964301,979769,5200,314547,16.050795353982295,76.87368606194688,999.7822730896796,50.79650064391967
568,Shimoga,KARNATAKA,1752753,877415,875338,1263016,8791,363835,14.063845885634592,75.17882078103197,997.6328191334774,72.058983781514
571,Tumkur,KARNATAKA,2678980,1350594,1328386,1813391,7971,562769,13.592467760074973,77.02297966260545,983.5568646092015,67.68960574547029
569,Udupi,KARNATAKA,1177361,562131,615230,926429,9070,224814,13.450404228534568,74.72009990316337,1094.4601881056194,78.68691081155228
598,Alappuzha,KERALA,2127789,1013142,1114647,1852797,28842,507913,9.542602965599087,76.38010796263319,1100.1883250324238,87.07616215705599
595,Ernakulam,KERALA,3282388,1619557,1662831,2855676,88737,771287,10.004879301987431,76.26957729035381,1026.7196523493772,86.99995247362591
596,Idukki,KERALA,1108974,552808,556166,923010,8250,244844,9.80480963855423,77.04586641566264,1006.0744417591641,83.23098647939446
589,Kannur,KERALA,2523003,1181446,1341557,2138434,32653,511167,11.941523076923056,75.35209891725934,1135.5212172202537,84.75748938863728
588,Kasaragod,KERALA,1307375,628613,678762,1037492,10378,237670,12.33310309912974,75.07768497134369,1079.7772238245154,79.35687924275744
600,Kollam,KERALA,2635375,1246968,1388407,2240273,31542,630767,8.929388820570157,76.6360775852431,1113.426326898525,85.00775032016317
597,Kottayam,KERALA,1974551,968289,1006262,1749798,37849,464039,9.643701174068417,76.46059673302705,1039.2165975240864,88.61751355118201
591,Kozhikode,KERALA,3086293,1470942,1615351,2615443,36791,641660,11.392924270557026,75.71158720159153,1098.1745031415242,84.74383345975252
592,Malappuram,KERALA,4112920,1960328,2152592,3311315,27909,730119,10.97329875666072,75.93910775606876,1098.0774645875588,80.51007556675063
593,Palakkad,KERALA,2809934,1359478,1450456,2239492,27162,587583,10.784926903553291,76.49980490693744,1066.9212741949484,79.69909613535407
601,Thiruvananthapuram,KERALA,3301427,1581678,1719749,2785408,71621,783872,8.537101759082221,76.88711502868073,1087.2940004223365,84.36981947503307
594,Thrissur,KERALA,3121200,1480763,1640437,2678548,56148,721625,10.458932647907687,76.12321940836945,1107.8322459434764,85.81789055491478
590,Wayanad,KERALA,817420,401684,415736,645585,4712,149864,11.715277464788736,76.07587007042254,1034.9827227372762,78.97837097208289
461,Anuppur,MADHYA PRADESH,749237,379114,370123,436595,1290,81338,23.18184220430107,81.86560000000007,976.2841783737873,58.27194866243926
459,Ashoknagar,MADHYA PRADESH,845071,443837,401234,469109,619,84720,24.63098846153845,77.82974493927134,904.0120584809288,55.51119373401762
457,Balaghat,MADHYA PRADESH,1701698,842178,859520,1147623,1712,277927,21.80020720640569,80.42170053380796,1020.5918463792689,67.43987476038639
441,Barwani,MADHYA PRADESH,1385881,699340,686541,549926,1158,181139,21.702135714285724,74.91004719710673,981.6984585466296,39.68060749804636
447,Betul,MADHYA PRADESH,1575362,799236,776126,939769,2109,230974,21.964626315789477,77.7873428189117,971.0848860661932,59.654162027521295
420,Bhind,MADHYA PRADESH,1703005,926843,776162,1094917,1166,107819,26.35951126187245,78.7618324287653,837.4255402479168,64.29323460588783
444,Bhopal,MADHYA PRADESH,2371061,1236130,1134931,1660690,40788,452912,23.480726143790854,77.39246623093679,918.1323970779772,70.03995257819179
467,Burhanpur,MADHYA PRADESH,757847,388504,369343,408679,986,112420,21.364567254408065,76.24460478589425,950.6800444783065,53.92632022030832
425,Chhatarpur,MADHYA PRADESH,1762375,936121,826254,943033,1880,176056,24.813637376460004,79.56449299191374,882.6358985643949,53.50921341939144
455,Chhindwara,MADHYA PRADESH,2090922,1064468,1026454,1294198,3588,344875,22.227966971713823,78.76413136439254,964.2882641845504,61.89604394616346
428,Damoh,MADHYA PRADESH,1264219,661873,602346,747715,1432,187731,23.76624407960196,79.47049303482588,910.0628066109359,59.1444203891889
422,Datia,MADHYA PRADESH,786754,420157,366597,491445,616,97696,25.90226439560441,78.63916571428574,872.5238422780056,62.46488737267304
437,Dewas,MADHYA PRADESH,1563715,805359,758356,925369,3518,270457,22.7851110021322,76.46088805970157,941.6372077545542,59.17759949862986
438,Dhar,MADHYA PRADESH,2185793,1112725,1073068,1077338,2388,349639,22.572681718963157,75.1105620736698,964.3604664225213,49.28819883676084
453,Dindori,MADHYA PRADESH,704524,351913,352611,378714,554,62372,22.83738437047757,81.04332966714911,1001.9834447718612,53.754591752729496
458,Guna,MADHYA PRADESH,1241519,649362,592157,653980,2482,144248,24.49043927178156,77.2235895968791,911.9058398859188,52.67579473209834
421,Gwalior,MADHYA PRADESH,2032036,1090327,941709,1357210,15779,306859,26.04074441964285,78.12782433035713,863.6941027783408,66.79064740978998
448,Harda,MADHYA PRADESH,570465,294838,275627,352550,986,95066,22.227659781121783,77.07022571819435,934.8421845216695,61.80046102740746
449,Hoshangabad,MADHYA PRADESH,1241350,648725,592625,810644,2871,198076,22.595268801996703,78.02168094841929,913.5226791013141,65.3034196640754
439,Indore,MADHYA PRADESH,3276697,1699627,1577070,2309130,48691,593576,22.680265752128648,75.9133801324502,927.8918256770456,70.47127030665331
451,Jabalpur,MADHYA PRADESH,2463289,1277278,1186011,1756468,20443,452023,23.18525572327043,79.98328754716981,928.5457042241392,71.30580293258323
464,Jhabua,MADHYA PRADESH,1025048,515023,510025,352081,744,125411,22.419578015397768,74.40921616766468,990.2955790323928,34.34775737331325
450,Katni,MADHYA PRADESH,1292042,662013,630029,790773,2179,172416,23.724416229116937,80.33819665871127,951.6867493538647,61.20335097465872
454,Mandla,MADHYA PRADESH,1054905,525272,529633,604962,912,143803,22.70348712446353,80.38600543633753,1008.3023652507652,57.347533664168814
433,Mandsaur,MADHYA PRADESH,1340411,682851,657560,834591,2324,239885,24.19278764044944,75.43588667736759,962.9626375300029,62.26381311403741
419,Morena,MADHYA PRADESH,1965970,1068417,897553,1179685,1781,131486,26.37313504531724,77.88447341389724,840.0774229537717,60.00523914403577
432,Neemuch,MADHYA PRADESH,826067,422653,403414,508834,1945,145258,24.70311893333336,75.06608186666664,954.4803893501288,61.59718279510016
426,Panna,MADHYA PRADESH,1016520,533480,483040,552559,653,76097,24.451325840092657,80.21133001158752,905.451000974732,54.35790737024357
446,Raisen,MADHYA PRADESH,1331597,700358,631239,820220,1141,194373,23.292518206521724,78.16305495923909,901.3090448028008,61.59671432122481
442,Rajgarh,MADHYA PRADESH,1545814,790212,755602,804245,1611,231130,23.785499026425583,76.66431223922116,956.201626905185,52.0272814193687
434,Ratlam,MADHYA PRADESH,1455069,738241,716828,825880,3644,213825,23.503562290502792,75.14895782122909,970.9945668149019,56.75882037209232
430,Rewa,MADHYA PRADESH,2365106,1225100,1140006,1441757,3406,251132,24.861184625158856,81.57572465057183,930.5411803118113,60.959508791572134
427,Sagar,MADHYA PRADESH,2378458,1256257,1122201,1545719,4546,366494,23.800318709677374,78.71940357771273,893.2893508255079,64.98828232409402
429,Satna,MADHYA PRADESH,2228935,1157495,1071440,1371781,3754,294702,24.62777621776502,80.75547048710598,925.6541064972203,61.54423525136444
445,Sehore,MADHYA PRADESH,1311332,683743,627589,780362,1566,212138,22.9297199679658,77.06780202883085,917.872650981436,59.509109821158944
456,Seoni,MADHYA PRADESH,1379131,695879,683252,864194,1182,228695,22.33230487804874,79.66053863928111,981.8546040331724,62.66221265420037
460,Shahdol,MADHYA PRADESH,1066063,540021,526042,604194,1733,113184,23.44859864559819,81.4596831828442,974.1139696419214,56.67526215617651
436,Shajapur,MADHYA PRADESH,1512681,780520,732161,894612,1382,232735,23.566620317220547,76.33555181268885,938.0425869932866,59.14082347831433
418,Sheopur,MADHYA PRADESH,687861,361784,326077,328025,273,74770,25.78014810996563,77.16911116838484,901.3029874179068,47.687686901859536
423,Shivpuri,MADHYA PRADESH,1726050,919795,806255,900846,1852,148128,25.37802451874367,77.74861600810549,876.5594507471774,52.19118797253846
462,Sidhi,MADHYA PRADESH,1127033,575912,551121,600785,837,102228,24.17547189952905,82.1053783359498,956.9534928947478,53.306779836970165
424,Tikamgarh,MADHYA PRADESH,1445166,760355,684811,747940,1090,132725,25.14099852104666,78.89357064846428,900.6464085854634,51.75460812114318
435,Ujjain,MADHYA PRADESH,1986864,1016289,970575,1240990,7501,323379,23.319288862745065,75.80383717647058,955.0187003893577,62.45973554304673
431,Umaria,MADHYA PRADESH,644758,330674,314084,356672,839,67975,23.59601063063061,80.90879477477475,949.829741679116,55.318739744214106
443,Vidisha,MADHYA PRADESH,1458875,769568,689307,862918,1926,181510,23.82838307984792,77.9013507604563,895.7064223044617,59.1495501670808
501,Akola,MAHARASHTRA,1813906,932334,881572,1411281,6163,314490,20.746310479041902,77.12122320359276,945.553846582877,77.80342531531403
503,Amravati,MAHARASHTRA,2888445,1480768,1407677,2251875,9438,512492,21.16520991810736,77.67583503184723,950.639803129187,77.96149831483721
235,Aurangabad,BIHAR,2540073,1318684,1221389,1466002,2362,44456,20.0979228832952,75.32072196796334,926.218108356513,57.71495543632014
515,Aurangabad,MAHARASHTRA,3701282,1924469,1776813,2503837,23258,589477,20.0979228832952,75.32072196796334,923.2744201127687,67.64783121091557
506,Bhandara,MAHARASHTRA,1200334,605520,594814,899860,2932,227025,21.211792649727748,80.10950199637024,982.3193288413264,74.9674673882436
523,Bid,MAHARASHTRA,2585049,1349106,1235943,1718507,5614,402052,18.952353340080982,75.69319706477731,916.1200083610925,66.4787011774245
500,Buldana,MAHARASHTRA,2586258,1337560,1248698,1879874,4767,423036,20.56680611183355,76.39017880364096,933.5641017973026,72.68702503771858
509,Chandrapur,MAHARASHTRA,2204307,1123834,1080473,1578615,8239,418666,20.095609090909075,79.31556380471388,961.4168996488805,71.61502458595831
498,Dhule,MAHARASHTRA,2050862,1054031,996831,1293916,6065,315332,21.274018690400517,74.58719071837263,945.7321463979712,63.09132452597981
507,Gondiya,MAHARASHTRA,1322507,661554,660953,1004243,2866,239981,21.225008411214997,80.17522698598128,999.0915329663187,75.93479656440381
512,Hingoli,MAHARASHTRA,1177345,606294,571051,790743,1221,159114,19.59525302245251,77.09239412780653,941.8714353102621,67.16323592489883
499,Jalgaon,MAHARASHTRA,4229917,2197365,2032552,2891882,14297,720791,20.8828943415638,75.55140421810695,924.9951646631306,68.36734621506758
514,Jalna,MAHARASHTRA,1959046,1011473,947573,1195523,3791,288895,19.984612534818933,75.98473607242339,936.8248089667248,61.02577479038267
530,Kolhapur,MAHARASHTRA,3876001,1980658,1895343,2825845,22269,770005,16.44881301587301,74.12897150793648,956.9259306755634,72.90619894060914
524,Latur,MAHARASHTRA,2454196,1273140,1181056,1650672,6217,381722,18.348687268993856,76.75812607802874,927.6717407355043,67.25917571375717
505,Nagpur,MAHARASHTRA,4653570,2384975,2268595,3673808,57964,917626,21.196556862745105,79.02166176470584,951.2028427970944,78.94601349071789
511,Nanded,MAHARASHTRA,3361292,1730075,1631217,2189425,7548,488748,19.209316983017,77.6829048951049,942.8591246044247,65.13641183211693
497,Nandurbar,MAHARASHTRA,1648295,833170,815125,906509,2579,186202,21.523175625248147,74.32638757443429,978.3417549839769,54.99676938897466
516,Nashik,MAHARASHTRA,6107187,3157186,2950001,4345366,45039,904710,20.266912871287143,74.03824168316828,934.3766886081467,71.15167752354725
525,Osmanabad,MAHARASHTRA,1657576,861535,796041,1137810,3209,240042,18.19459456066944,75.99495575313809,923.9798731334189,68.64300641418554
513,Parbhani,MAHARASHTRA,1836086,942870,893216,1157814,3982,272486,19.31032425249168,76.70163338870431,947.3373847932377,63.058810970727954
521,Pune,MAHARASHTRA,9429408,4924105,4505303,7171723,235018,1925019,18.51696171428573,74.12922881632647,914.9486048733729,76.05698045943076
403,Raigarh,CHHATTISGARH,1493984,750278,743706,951639,3342,297308,18.453257637845976,73.0090609418579,991.240580158288,63.6980717330306
520,Raigarh,MAHARASHTRA,2634200,1344345,1289855,1939994,38570,547206,18.453257637845976,73.0090609418579,959.4672498502988,73.64642016551515
528,Ratnagiri,MAHARASHTRA,1615069,761121,853948,1199392,7752,367352,17.210195070127703,73.25725893866404,1121.9608971503874,74.26258568519364
531,Sangli,MAHARASHTRA,2822143,1435728,1386415,2049467,13212,485126,17.154930181086502,74.70713822937628,965.6529649070019,72.62094798172878
527,Satara,MAHARASHTRA,3003741,1510842,1492899,2225694,14093,562653,17.6737908974359,74.18052064102558,988.1238408781329,74.09740054152472
529,Sindhudurg,MAHARASHTRA,849651,417332,432319,666067,3517,194228,16.170948049777163,73.51329008172343,1035.9114565861234,78.39301077736623
526,Solapur,MAHARASHTRA,4317756,2227852,2089904,2910676,15145,595560,17.837357937584812,75.42394823609216,938.080267450441,67.41177593175715
517,Thane,MAHARASHTRA,11060148,5865078,5195070,8227161,256170,2231800,19.698767747440264,72.79882742564581,885.7631560910188,74.38563209099914
504,Wardha,MAHARASHTRA,1300774,668385,632389,1019458,4313,266155,20.80743024390242,78.57259105691062,946.1448117477203,78.37318396585418
502,Washim,MAHARASHTRA,1197160,620302,576858,869917,1875,196022,20.282282394366213,77.25502394366208,929.9631469832436,72.66505730228207
510,Yavatmal,MAHARASHTRA,2772348,1419965,1352383,2022574,6094,446516,20.04258346738159,78.05326371760479,952.4058691587469,72.9552711275785
275,Bishnupur,MANIPUR,237399,118782,118617,156333,676,34364,24.50712111801243,93.8246236024845,998.6109006415114,65.85242566312411
280,Chandel,MANIPUR,144182,74579,69603,90302,184,18764,24.2635812987013,94.09443844155844,933.2788050255434,62.630564148090606
274,Churachandpur,MANIPUR,274143,138820,135323,195935,837,29894,24.30309718875504,93.38671506024085,974.8091053162369,71.4718230996232
272,Senapati,MANIPUR,479148,247323,231825,264477,256,22798,25.08465586034914,94.03366234413956,937.3370046457467,55.19735029677678
273,Tamenglong,MANIPUR,140651,72371,68280,85006,125,11541,24.98312942238265,93.49450740072204,943.4718326401459,60.43753688206981
276,Thoubal,MANIPUR,422168,210845,211323,269304,880,49507,24.545392553191498,93.97959893617023,1002.2670682254737,63.79071838699285
279,Ukhrul,MANIPUR,183998,94718,89280,129829,276,14026,25.05900314960629,94.44129566929138,942.5874701746236,70.56000608702269
294,East Garo Hills,MEGHALAYA,317917,161223,156694,192147,288,24550,25.82728228228228,90.64684924924916,971.9084745972968,60.439359958731366
298,East Khasi Hills,MEGHALAYA,825922,410749,415173,578030,5032,135941,25.303763888888884,91.75922519841272,1010.770567913738,69.98602773627533
299,Jaintia Hills,MEGHALAYA,395124,196285,198839,187527,510,41677,25.33959557069844,92.37608160136298,1013.0116921822861,47.46029094663954
295,South Garo Hills,MEGHALAYA,142334,73170,69164,82062,179,10940,25.240568578553614,90.64560349127176,945.2507858411917,57.654530892126964
293,West Garo Hills,MEGHALAYA,643291,324159,319132,358702,1630,51301,25.495285185185185,90.03709947089942,984.4921782211816,55.76045677617129
296,West Khasi Hills,MEGHALAYA,383461,193715,189746,230678,149,32873,25.500889926739926,91.25364542124538,979.5111374958057,60.15683472373984
283,Aizawl,MIZORAM,400309,199270,201039,340595,4019,79804,23.90781335453101,92.85359459459472,1008.8774025191951,85.08302336445097
284,Champhai,MIZORAM,125745,63388,62357,100802,186,23948,23.54166580976866,93.24221799485862,983.7350918154856,80.16382361127678
282,Kolasib,MIZORAM,83955,42918,41037,65895,367,14853,24.2020004347826,92.73470391304348,956.1722354256955,78.48847596926926
287,Lawngtlai,MIZORAM,117894,60599,57295,62861,162,9283,22.36102843137253,92.66964156862753,945.477648146009,53.31993146385736
286,Lunglei,MIZORAM,161428,82891,78537,121122,482,26394,23.007717036172675,92.63512555425892,947.4731876802065,75.03159303218773
281,Mamit,MIZORAM,86364,44828,41536,60191,90,12158,23.73852942502819,92.4330803833147,926.5637547961095,69.69454865453199
288,Saiha,MIZORAM,56574,28594,27980,42233,168,7400,22.35744801061008,93.02827931034489,978.5269636986781,74.650899706579
285,Serchhip,MIZORAM,64937,32851,32086,54476,131,12315,23.263864705882344,92.914158496732,976.713037654866,83.89054006190617
265,Dimapur,NAGALAND,378811,197394,181417,278037,3303,71413,25.814176811594223,93.75074057971014,919.0603564444715,73.39728782955089
270,Kohima,NAGALAND,267988,138966,129022,197489,1928,50724,25.60311428571428,93.78600657596373,928.4429284861045,73.69322506977925
262,Mokokchung,NAGALAND,194622,101092,93530,159494,537,40154,26.478911764705888,94.522426006192,925.1968503937009,81.95065306080505
261,Mon,NAGALAND,250260,131753,118507,119626,178,14398,26.69207374301676,95.03072988826828,899.4633898279357,47.80068728522337
266,Phek,NAGALAND,163418,83743,79675,105893,170,36182,25.63272986577182,94.56814563758392,951.4228054882199,64.79885936677722
267,Tuensang,NAGALAND,196596,101933,94663,117511,155,24998,26.21104453280316,94.85809880715708,928.6786418529819,59.77283362835459
264,Wokha,NAGALAND,166343,84505,81838,128208,198,25268,26.202611551155112,94.1990815181518,968.4397372936513,77.07447863751405
263,Zunheboto,NAGALAND,140757,71217,69540,102881,261,28846,26.028178205128206,94.50026666666668,976.4522515691478,73.09121393607423
377,Baleshwar,ORISSA,2320529,1185787,1134742,1621232,7370,296834,21.48570932311624,87.08085828011933,956.9526398923247,69.8647592854905
378,Bhadrak,ORISSA,1506337,760260,746077,1094140,2637,164636,20.95262735257214,86.81496204516931,981.3445400257806,72.635804604149
381,Cuttack,ORISSA,2624470,1352760,1271710,2011469,15046,349587,20.407640646029623,85.7776810228802,940.0854549217895,76.64286503560719
383,Dhenkanal,ORISSA,1192811,612593,580218,829910,1810,117172,20.79887159353349,85.53226836027711,947.1508815804294,69.57598479557952
389,Gajapati,ORISSA,577817,282882,294935,262537,635,63112,19.121080882352945,84.14015091911759,1042.6078718334852,45.436011747664054
388,Ganjam,ORISSA,3529031,1779218,1749813,2210050,9049,405298,19.2632617564534,84.80297710437702,983.4730763740025,62.62483950976912
371,Jharsuguda,ORISSA,579505,296690,282815,405879,2498,81433,21.827058566978184,83.93581682242987,953.2340153021672,70.03891252016807
395,Kalahandi,ORISSA,1576869,787101,789768,802036,1953,91171,19.784253092783523,83.1124043814433,1003.3883834476134,50.86256372596583
390,Kandhamal,ORISSA,733110,359945,373165,399786,768,28736,20.092878624813142,84.02216352765326,1036.7278334189946,54.53288046814257
379,Kendrapara,ORISSA,1440361,717814,722547,1089265,1628,173107,20.606319815982264,86.83763247572003,1006.5936301047346,75.62444414976524
386,Khordha,ORISSA,2251673,1167137,1084536,1749936,35701,349860,20.054162322274863,85.52234834123229,929.2276742147666,77.7171463174271
398,Koraput,ORISSA,1379647,678809,700838,568090,3988,85766,18.82627794779476,82.81278469846964,1032.4524277079415,41.17647485190052
399,Malkangiri,ORISSA,613192,303624,309568,244706,448,24604,18.25227930367506,81.98293636363628,1019.5768450451874,39.906913332202635
376,Mayurbhanj,ORISSA,2519738,1256213,1263525,1369397,2950,140189,21.897621545157754,86.4030408052231,1005.8206689470654,54.34680113567363
385,Nayagarh,ORISSA,962789,502636,460153,688362,1163,124984,20.192895622119817,85.05614700460825,915.4795915931211,71.49666230087797
394,Nuapada,ORISSA,610382,301962,308420,299383,757,43976,20.471309512195116,82.59152536585364,1021.3867970141939,49.048464731921975
387,Puri,ORISSA,1698730,865380,833350,1291939,3416,201605,19.83509174603177,85.86698989898981,962.987358154799,76.05322799974098
396,Rayagada,ORISSA,967911,471960,495951,407735,1553,61543,19.292840020060204,83.45860120361095,1050.8326976862445,42.125257384201646
372,Sambalpur,ORISSA,1041099,526877,514222,703691,5231,126498,21.515752380952385,84.34958483245157,975.9811113409771,67.59117048426711
374,Sundargarh,ORISSA,2093437,1061147,1032290,1342322,12787,223537,22.06354819277107,84.50524819277099,972.8058412265219,64.12048702683673
637,Karaikal,PONDICHERRY,200222,97809,102413,154916,1868,47880,10.876161726078813,79.82369793621002,1047.071332903925,77.3721169501853
636,Mahe,PONDICHERRY,41816,19143,22673,36470,574,7150,12.006420793787758,75.28275021570326,1184.4016089432168,87.21541993495313
634,Yanam,PONDICHERRY,55626,27301,28325,39274,207,12859,16.707695652173904,82.26187304347832,1037.5077835976706,70.60367454068242
49,Amritsar,PUNJAB,2490656,1318408,1172248,1684770,29961,461231,31.548679820627772,74.79883856502238,889.1390222146711,67.6436248120977
46,Bathinda,PUNJAB,1388525,743197,645328,844868,11284,255650,30.190524611973352,75.05685898004438,868.313515797292,60.84643776669487
45,Faridkot,PUNJAB,617508,326671,290837,381285,4348,113549,30.591187250996025,74.79751553784862,890.3055367632878,61.745758759400694
40,Fatehgarh Sahib,PUNJAB,600163,320795,279368,426033,5138,113683,30.64290947368421,76.36208394736842,870.8614535762714,70.98621541147988
43,Firozpur,PUNJAB,2029074,1071637,957437,1227511,10042,349662,30.63407535211269,74.40245732394365,893.434063960091,60.49611793359927
35,Gurdaspur,PUNJAB,2298323,1212617,1085706,1634719,14428,411216,32.04283371212125,75.3204064393939,895.3412330521509,71.12659969899792
38,Hoshiarpur,PUNJAB,1586625,809057,777568,1199699,13747,319930,31.55157169811319,75.8469857442349,961.0793800684006,75.61326715512487
37,Jalandhar,PUNJAB,2193590,1145211,1048379,1622537,39082,446200,31.250336907216507,75.54400350515463,915.4461492249027,73.96719532820627
36,Kapurthala,PUNJAB,815168,426311,388857,576567,9732,161206,31.336592638036837,75.47641165644177,912.1439512468596,70.72983728507498
41,Ludhiana,PUNJAB,3498739,1867816,1630923,2560225,58589,703624,30.76596397379912,75.83110851528383,873.1711260638093,73.17564985556224
47,Mansa,PUNJAB,769751,408732,361019,423560,2673,140099,29.919547714285724,75.4304922857143,883.2658074239355,55.025586196055606
42,Moga,PUNJAB,995746,525920,469826,627889,7897,183396,30.756540067340065,75.1600845117845,893.3411925768178,63.057145095235136
44,Muktsar,PUNJAB,901896,475622,426274,524848,4571,166585,30.31243303303303,74.5518747747748,896.2453376841273,58.19384940170485
48,Patiala,PUNJAB,1895686,1002522,893164,1266791,24274,352929,30.214540380693364,76.27505893949697,890.9171070560049,66.82493830729351
51,Rupnagar,PUNJAB,684627,357485,327142,502731,6600,129123,30.910937330754347,76.53743500967126,915.1209141642307,73.43137211941685
53,Sangrur,PUNJAB,1655169,878029,777140,1002077,10736,305557,30.185045204336895,75.89437014178496,885.0960503582455,60.54227695177955
119,Ajmer,RAJASTHAN,2583052,1324085,1258967,1526673,13499,393498,26.199300378787903,74.6990419191919,950.8203778458331,59.10345591184382
104,Alwar,RAJASTHAN,3674179,1939026,1735153,2182476,9750,485723,27.55271738035265,76.65359630562563,894.8580369732019,59.40037216477477
125,Banswara,RAJASTHAN,1797485,907754,889731,829343,2324,120603,23.453642032967014,74.44246868131869,980.1455019752048,46.13907765572453
128,Baran,RAJASTHAN,1222755,633945,588810,693307,1363,161310,24.98023243243244,76.86210651828291,928.8029718666446,56.70040196114512
115,Barmer,RAJASTHAN,2603751,1369022,1234729,1188322,2766,126494,25.77070908045978,71.50297126436782,901.905886099712,45.63884949060029
105,Bharatpur,RAJASTHAN,2548462,1355726,1192736,1480869,4179,288723,27.32411858037578,77.21752077244258,879.7765920252323,58.108341423179944
122,Bhilwara,RAJASTHAN,2408523,1220736,1187787,1256126,6207,373644,25.45119767759564,74.63947595628417,973.0089061025479,52.15337366510513
101,Bikaner,RAJASTHAN,2363937,1240801,1123136,1278801,7607,220793,28.12489068322981,73.26943322981371,905.170128006022,54.09623860534354
121,Bundi,RAJASTHAN,1110906,577160,533746,585044,1392,136969,25.48580716049379,75.79984074074079,924.7799570309793,52.66368171564471
126,Chittaurgarh,RAJASTHAN,1544338,783171,761167,821825,4941,268172,24.631623761665463,74.80010997846382,971.903964779084,53.215358295917085
102,Churu,RAJASTHAN,2039547,1051446,988101,1149269,2577,231696,28.29330375536484,74.65846427038629,939.7543953755114,56.34922852966859
109,Dausa,RAJASTHAN,1634409,857787,776622,938051,1719,195277,26.91234817629181,76.57342097264443,905.378607976106,57.39389589753849
106,Dhaulpur,RAJASTHAN,1206516,653647,552869,683098,1330,96086,26.72397054945053,77.74476219780222,845.821980365549,56.617400846735556
124,Dungarpur,RAJASTHAN,1388552,696532,692020,681591,1477,141275,23.75104807692308,73.84765641025645,993.5221928066478,49.086458411352254
99,Ganganagar,RAJASTHAN,1969168,1043340,925828,1193343,6295,283142,29.256785412667963,73.56192303262948,887.3694097801292,60.6013808877658
100,Hanumangarh,RAJASTHAN,1774692,931184,843508,1034136,3360,243163,29.1813351791531,74.74632573289902,905.8446021409302,58.271294399253506
110,Jaipur,RAJASTHAN,6626178,3468507,3157671,4300965,76565,990085,27.033459290187885,75.77117286012533,910.3833436115308,64.90868491610095
114,Jaisalmer,RAJASTHAN,669919,361708,308211,308653,754,43141,26.86900838548185,71.18371877346682,852.0989306291262,46.07318198170226
116,Jalor,RAJASTHAN,1828730,936634,892096,829582,1585,161845,25.07578093797277,72.18647261724662,952.4488754412076,45.36383173021715
129,Jhalawar,RAJASTHAN,1411129,725143,685986,739792,1750,220428,24.24725541474657,76.11242891705065,946.0009956656825,52.42554011716859
103,Jhunjhunun,RAJASTHAN,2137045,1095896,1041149,1370360,4828,297559,28.13517401247401,75.52840893970894,950.0436172775519,64.12405915645202
113,Jodhpur,RAJASTHAN,3687165,1923928,1763237,2031532,19335,408808,26.678460838536967,73.00450847457628,916.4776436540245,55.09739867893083
107,Karauli,RAJASTHAN,1458248,783639,674609,805849,1059,132079,26.51901555555556,76.96081818181815,860.8670574078116,55.26145072717398
127,Kota,RAJASTHAN,1951014,1021161,929853,1298345,12843,339899,25.175718080000014,76.18618928000001,910.5841292411285,66.5471903328218
112,Nagaur,RAJASTHAN,3307743,1696325,1611418,1758624,4449,347344,27.07862016048146,74.14215667001012,949.9465019969641,53.16688751211929
118,Pali,RAJASTHAN,2037573,1025422,1012151,1085693,4043,326793,25.80490393541874,73.55285640766907,987.0580112383,53.28363695435697
123,Rajsamand,RAJASTHAN,1156597,581339,575258,619139,1989,193276,25.24894767441859,73.96570215946844,989.5396661844466,53.53109164211908
108,Sawai Madhopur,RAJASTHAN,1335551,704031,631520,741748,1887,140947,26.251081180223288,76.4219283891548,897.005955703655,55.53872521528568
111,Sikar,RAJASTHAN,2677333,1374990,1302343,1652117,5647,339457,27.64644058641976,75.29317422839503,947.1654339304287,61.7075649536311
117,Sirohi,RAJASTHAN,1036346,534231,502115,476806,2146,134089,24.7976905263158,72.75309131578943,939.8836832755868,46.008379440843115
120,Tonk,RAJASTHAN,1421326,728136,693190,749659,1908,158264,26.153935071707927,75.79192216427637,952.0062186184999,52.743635168849366
130,Udaipur,RAJASTHAN,3068420,1566801,1501619,1582629,14211,357846,24.44076752136749,73.84029839743584,958.3980352322982,51.57797824287418
93,East,NCT OF DELHI,1709346,907500,801846,1352998,80037,352758,27.29600352941175,88.74908392156858,883.5768595041322,79.15296259505097
616,Ariyalur,TAMIL NADU,754894,374703,380191,480604,1749,177502,11.190514836795256,79.22249643916912,1014.6462665097424,63.66509735141622
603,Chennai,TAMIL NADU,4646732,2335844,2310888,3776276,217368,1096334,13.058098905608748,80.28139151846806,989.3160673401135,81.267350903818
632,Coimbatore,TAMIL NADU,3458045,1729297,1728748,2635907,63273,896325,10.871376995940452,77.07619012178621,999.682529952923,76.22535276435094
617,Cuddalore,TAMIL NADU,2605914,1311697,1294217,1815281,15396,598412,11.57587300613498,79.63002365371497,986.6737516362391,69.66005017817164
630,Dharmapuri,TAMIL NADU,1506843,774303,732540,917709,3651,337972,12.300141200000006,78.11509813333339,946.0637502373102,60.902761601573616
612,Dindigul,TAMIL NADU,2159775,1080938,1078837,1481834,9155,500057,10.377801390820574,77.78011279554937,998.0563177536546,68.61057286059891
610,Erode,TAMIL NADU,2251744,1129868,1121876,1492662,18604,595211,11.267012155963302,77.42034334862392,992.9266073559036,66.28915187516876
604,Kancheepuram,TAMIL NADU,3998252,2012958,1985294,3013382,100322,961161,12.496424756511884,80.08820360135913,986.2570406337339,75.36748559120335
629,Kanniyakumari,TAMIL NADU,1870374,926345,944029,1548738,15673,465692,8.183466300191206,77.32053064053538,1019.090079829869,82.8036531731087
613,Karur,TAMIL NADU,1064493,528184,536309,727044,4915,264949,10.79532776617955,78.08749686847604,1015.3828968692728,68.29955669036809
623,Madurai,TAMIL NADU,3038252,1526475,1511777,2273430,34097,754141,9.904313833333331,78.01366033333332,990.3712802371477,74.82690705050142
618,Nagapattinam,TAMIL NADU,1616450,798127,818323,1213008,5585,381940,10.789468161718286,79.79437299431483,1025.3042435602354,75.0414797859507
609,Namakkal,TAMIL NADU,1726601,869280,857321,1176131,8960,441044,11.33766638477801,78.14624841437633,986.2426375851279,68.11828557958671
615,Perambalur,TAMIL NADU,565223,282157,283066,375823,1507,135751,11.260137758112096,78.86034011799416,1003.2216106635667,66.49110174214425
621,Pudukkottai,TAMIL NADU,1618345,803188,815157,1110545,4494,354493,10.130514816433578,79.05444484265728,1014.9018660637361,68.62226533897284
626,Ramanathapuram,TAMIL NADU,1353445,682658,670787,978946,5172,291400,9.31286995153476,78.99185362412462,982.610619080125,72.32994321897085
608,Salem,TAMIL NADU,3482056,1781571,1700485,2285562,20660,835377,11.629324202127655,78.2478257978723,954.4862371468777,65.63828956225862
622,Sivaganga,TAMIL NADU,1339101,668672,670429,959744,5773,314270,9.960306580645158,78.56535729032255,1002.6275961906586,71.67077016595462
620,Thanjavur,TAMIL NADU,2405890,1182416,1223474,1790998,13495,555582,10.387692255892237,79.3194869107745,1034.7238197047402,74.44222304427883
624,Theni,TAMIL NADU,1245899,625683,620216,870080,4667,312310,9.924066666666668,77.43458833333332,991.2623485055532,69.83551636208072
602,Thiruvallur,TAMIL NADU,3728104,1876062,1852042,2791721,75634,909400,13.275858101752885,80.19724702864492,987.1965851874832,74.88313094269903
619,Thiruvarur,TAMIL NADU,1264277,626693,637584,946471,4416,303114,10.368927409395978,79.60322893959727,1017.378525051341,74.86262899665184
606,Tiruvannamalai,TAMIL NADU,2464875,1235889,1228986,1626813,6445,549077,12.419318947368414,79.23265631578953,994.4145469374677,65.9998174349612
605,Vellore,TAMIL NADU,3936331,1961688,1974643,2773928,20623,865913,12.784882632293078,79.02643283582084,1006.6040063455555,70.46988680575896
625,Virudhunagar,TAMIL NADU,1942288,967709,974579,1398788,10219,505950,9.468872195892564,77.87641469194315,1007.0992416108562,72.01753807880192
291,Dhalai,TRIPURA,378230,194544,183686,276217,273,46875,23.781360477941163,91.94654283088232,944.1874331770705,73.0288448827433
292,North Tripura,TRIPURA,693947,352860,341087,520402,997,81601,24.121739755351683,92.17842538226292,966.6354928300176,74.99160598720074
290,South Tripura,TRIPURA,876001,447544,428457,646810,948,133744,23.211874098057383,91.6065807585568,957.3516793879484,73.83667370242728
289,West Tripura,TRIPURA,1725739,879428,846311,1361354,6394,314567,23.780166241299337,91.41310788863107,962.3425681238259,78.88527755355823
146,Agra,UTTAR PRADESH,4418797,2364953,2053844,2680510,27183,536402,26.99512974910393,78.05278291517321,868.4502398144909,60.66153299189803
143,Aligarh,UTTAR PRADESH,3673889,1951996,1721893,2092567,13634,268120,27.93748576850093,78.00146831119557,882.1191231949246,56.957817723943215
175,Allahabad,UTTAR PRADESH,5954391,3131807,2822584,3665727,24122,391542,25.392038662316445,82.05172446982063,901.2637113334251,61.56342437035123
178,Ambedkar Nagar,UTTAR PRADESH,2397888,1212410,1185478,1486939,2509,99581,26.39119025974028,82.68282142857147,977.7863923920125,62.010360784156724
162,Auraiya,UTTAR PRADESH,1379545,740040,639505,930836,2404,65479,26.66892394014961,79.42637057356607,864.1492351764769,67.47413096346983
191,Azamgarh,UTTAR PRADESH,4613913,2285004,2328909,2771917,6652,183381,26.008290954773837,83.01220251256285,1019.2144083774033,60.077357332051996
139,Baghpat,UTTAR PRADESH,1303048,700070,602978,797970,2989,119121,29.045793499999988,77.30266300000001,861.3110117559672,61.23872643218055
180,Bahraich,UTTAR PRADESH,3487731,1843884,1643847,1398368,2681,85814,27.691776300578027,81.46779783237004,891.5132405292306,40.09391779354543
193,Ballia,UTTAR PRADESH,3239774,1672902,1566872,1963590,4672,119972,25.86075638297873,84.03651978723408,936.6191205462126,60.608857284489595
182,Balrampur,UTTAR PRADESH,2148665,1114721,1033944,868357,1551,57400,27.449076537911324,82.47158326180256,927.5361278741497,40.413791819571685
170,Banda,UTTAR PRADESH,1799410,965876,833534,1002937,1655,73522,25.351885902503284,80.52487391304344,862.9824118209791,55.73699156945888
176,Bara Banki,UTTAR PRADESH,3260699,1707073,1553626,1692458,3159,108116,26.922777025232424,81.35762350597606,910.1110497324953,51.90476029832867
150,Bareilly,UTTAR PRADESH,4448359,2357665,2090694,2191759,15164,272830,28.51101940789474,79.43187072368416,886.7646591012718,49.271180675840235
185,Basti,UTTAR PRADESH,2464464,1255272,1209192,1393783,3423,108101,26.833880454545447,82.69790590909092,963.2908246180908,56.55521849781535
134,Bijnor,UTTAR PRADESH,3682713,1921215,1761498,2135393,7303,268353,29.313974259681096,78.45098815489754,916.8666703101943,57.984236078130444
142,Bulandshahr,UTTAR PRADESH,3499171,1845260,1653911,2031656,7865,223922,28.34875862068968,78.01082758620684,896.3024180874239,58.0610664640282
196,Chandauli,UTTAR PRADESH,1952756,1017905,934851,1174606,3492,99602,25.1180859611231,83.25307062634984,918.4069240253266,60.15119144429719
171,Chitrakoot,UTTAR PRADESH,991730,527721,464009,531072,827,41046,25.159924623803,81.07666087551297,879.2695382598001,53.55005898782935
190,Deoria,UTTAR PRADESH,3100946,1537436,1563510,1875239,4469,150001,26.42218856548857,83.8244070686071,1016.959405139466,60.47312658782191
201,Etah,UTTAR PRADESH,1774480,947339,827141,1055202,2635,69591,27.591155309734443,78.70021858407083,873.1203930166498,59.4654208556873
161,Etawah,UTTAR PRADESH,1581810,845856,735954,1062003,2964,113098,26.78817670157068,79.07621806282728,870.0700828509817,67.13846795759288
177,Faizabad,UTTAR PRADESH,2470996,1259628,1211368,1450901,4746,127754,26.60589185185181,82.00783530864202,961.687101271169,58.71725409510983
159,Farrukhabad,UTTAR PRADESH,1885204,1006240,878964,1092677,2624,88081,27.45063297872342,79.4406284574468,873.5132771505804,57.96067693469779
172,Fatehpur,UTTAR PRADESH,2632733,1384722,1248011,1512166,3385,75263,25.8374362030905,80.85416203090509,901.2718798430299,57.437119525603244
147,Firozabad,UTTAR PRADESH,2498156,1332046,1166110,1521806,5834,196080,27.20963993055552,78.42660624999998,875.4277254689403,60.91717250644075
141,Gautam Buddha Nagar,UTTAR PRADESH,1648115,890214,757901,1122947,53181,257586,28.393311038961038,77.52462467532465,851.369445998378,68.13523328165813
140,Ghaziabad,UTTAR PRADESH,4681645,2488834,2192811,3123264,78116,695130,28.74997308584685,77.67441879350343,881.0595644386085,66.71296093573946
195,Ghazipur,UTTAR PRADESH,3620268,1855075,1765193,2197549,5309,105767,25.624724775583484,83.5360854578097,951.5480506178995,60.70127957377741
183,Gonda,UTTAR PRADESH,3433919,1787146,1646773,1679994,4313,104084,27.157215552099505,82.0226888024882,921.454094964821,48.92351858037421
188,Gorakhpur,UTTAR PRADESH,4440895,2277777,2163118,2700328,14597,296619,26.63315886792452,83.3549560377358,949.6618852503999,60.805941144746726
28,Hamirpur,HIMACHAL PRADESH,454768,217070,237698,358091,2521,104120,25.738158381502892,79.82619479768789,1095.0292532362832,78.74146817718045
168,Hamirpur,UTTAR PRADESH,1104285,593537,510748,653299,1196,55929,25.738158381502892,79.82619479768789,860.5158566357278,59.16036168199332
155,Hardoi,UTTAR PRADESH,4092845,2191442,1901403,2221601,3845,95508,27.337409090909137,80.26411767676768,867.6492464778898,54.28011566526463
165,Jalaun,UTTAR PRADESH,1689974,906092,783882,1075196,2217,104176,26.067954587155988,79.36686911314993,865.1240712863595,63.622043889432625
194,Jaunpur,UTTAR PRADESH,4494204,2220465,2273739,2731677,8002,181467,25.70141280913127,82.54315351934063,1023.9922718889962,60.782220833767234
166,Jhansi,UTTAR PRADESH,1998603,1057436,941167,1304513,8517,183340,25.45581535234902,78.89954580536917,890.0463006744617,65.27124196251081
137,Jyotiba Phule Nagar,UTTAR PRADESH,1840221,963449,876772,983110,2825,89329,28.870498984771597,78.39009365482241,910.0346774972002,53.42347468048675
160,Kannauj,UTTAR PRADESH,1656616,881776,774840,1017087,2488,61491,26.993988617886185,79.64437940379408,878.7265700132459,61.3954591770211
163,Kanpur Dehat,UTTAR PRADESH,1796184,963255,832929,1170243,2682,49753,26.43047641196011,79.98710083056478,864.7024931093013,65.15162143744739
174,Kaushambi,UTTAR PRADESH,1599596,838485,761111,813424,1503,43753,25.53587532051282,81.41811282051287,907.7216646690161,50.851840089622634
189,Kushinagar,UTTAR PRADESH,3564544,1818055,1746489,1954820,3486,127331,26.892530675909864,83.92261542461007,960.6359543578164,54.84067527291009
167,Lalitpur,UTTAR PRADESH,1221592,641011,580581,641191,1079,77082,24.58877161016945,78.60082330508473,905.727046805749,52.48814661523651
157,Lucknow,UTTAR PRADESH,4589838,2394476,2195362,3127260,68506,582769,26.838233589251463,80.89706026871404,916.8444369457034,68.13443088841044
169,Mahoba,UTTAR PRADESH,875958,466358,409600,488106,1316,42936,25.34529670138888,79.67863003472216,878.2952152638102,55.72253464207188
148,Mainpuri,UTTAR PRADESH,1868529,993377,875152,1203885,2642,79022,27.17386862302482,79.03501851015807,880.986775413564,64.42955929503904
145,Mathura,UTTAR PRADESH,2547184,1367125,1180059,1507746,8726,281239,27.59390432801821,77.62153416856502,863.1683276949803,59.19266138606398
192,Mau,UTTAR PRADESH,2205968,1114709,1091259,1363044,2656,149908,26.01082203791469,83.50582654028433,978.9631195226737,61.788928941852284
138,Meerut,UTTAR PRADESH,3443689,1825743,1617946,2141488,23717,425624,29.02957625698323,77.80611005586593,886.1849668874535,62.18587102377712
199,Mirzapur,UTTAR PRADESH,2496970,1312302,1184668,1428683,4447,145997,25.10207959183675,82.60126628571429,902.7403753099516,57.216666599919094
135,Moradabad,UTTAR PRADESH,4772006,2503186,2268820,2263848,11690,281758,28.851770406189537,78.73580193423597,906.3729183528511,47.44017505426439
133,Muzaffarnagar,UTTAR PRADESH,4143512,2193434,1950078,2417339,10077,368153,29.470507977736563,77.64017847866423,889.0525085322831,58.34034027173084
151,Pilibhit,UTTAR PRADESH,2031007,1072002,959005,1061095,2870,83006,28.52024175035868,79.90103974175037,894.5925474019638,52.24477315932441
131,Pratapgarh,RAJASTHAN,867848,437744,430104,401515,716,71612,25.864842731707316,81.93530048780492,982.5468767133302,46.26559028770015
173,Pratapgarh,UTTAR PRADESH,3209141,1606085,1603056,1931559,5149,140538,25.864842731707316,81.93530048780492,998.1140475130519,60.18928429757371
158,Rae Bareli,UTTAR PRADESH,3405559,1752542,1653017,1965843,5184,247856,26.253902840059787,81.22260463378181,943.2110614182142,57.72453215463306
136,Rampur,UTTAR PRADESH,2335819,1223889,1111930,1043666,3847,131112,28.83244727272725,79.10977333333337,908.5219329530701,44.68094488485623
132,Saharanpur,UTTAR PRADESH,3466382,1834106,1632276,2077108,9699,404499,30.03381165217392,77.59905147826095,889.9572870924582,59.92149739988264
186,Sant Kabir Nagar,UTTAR PRADESH,1715183,869656,845527,954949,2031,79525,26.791596516393444,83.0387764344262,972.2545466253323,55.67621647369406
152,Shahjahanpur,UTTAR PRADESH,3006538,1606403,1400135,1490930,3889,115163,27.991389350649328,79.8302275324675,871.5963553354917,49.589594410581206
154,Sitapur,UTTAR PRADESH,4483992,2375264,2108728,2283733,3874,102040,27.501995963091108,80.85288881199547,887.7867891737508,50.93080005495103
200,Sonbhadra,UTTAR PRADESH,1862559,971344,891215,985708,5149,95582,24.46693268858798,83.06816324951639,917.5070829695761,52.92224300008751
179,Sultanpur,UTTAR PRADESH,3797117,1914586,1882531,2239902,5956,233701,26.2846386419753,82.05710456790123,983.2574770733726,58.9895439092343
156,Unnao,UTTAR PRADESH,3108367,1630087,1478280,1773584,3476,99466,26.63163990895297,80.636773292868,906.8718418096703,57.05838467594078
197,Varanasi,UTTAR PRADESH,3676841,1921857,1754984,2403903,19214,336056,25.36057088888889,82.82529666666672,913.1709591296334,65.37957447711229
64,Almora,UTTARAKHAND,622506,291081,331425,436497,1830,109876,29.683532133676103,79.50165064267351,1138.6005957104724,70.11932415109253
63,Bageshwar,UTTARAKHAND,259898,124326,135572,179483,435,47083,29.98703393393397,79.83954354354357,1090.4557373357143,69.0590154599112
57,Chamoli,UTTARAKHAND,391605,193991,197614,280556,899,71524,30.58338611464965,79.56281095541402,1018.6761241500894,71.6425990475096
65,Champawat,UTTARAKHAND,259648,131125,128523,177726,548,37725,29.29142393939393,80.07720212121217,980.1563393708293,68.44882302193739
62,Pithoragarh,UTTARAKHAND,483439,239306,244133,345550,1344,95421,30.14720631868129,80.34229230769236,1020.1708273089685,71.47747699296086
59,Tehri Garhwal,UTTARAKHAND,618931,297986,320945,407994,1366,117239,30.463700918635173,78.48783792650917,1077.047243830247,65.91914122898999
67,Udham Singh Nagar,UTTARAKHAND,1648902,858783,790119,1037839,7883,254802,29.02779577677222,79.45629004524895,920.0449939041644,62.94121785284996
56,Uttarkashi,UTTARAKHAND,330086,168597,161489,215126,602,52621,30.968958552036234,78.56880615384617,957.8402937181563,65.17271256581618
339,Bankura,WEST BENGAL,3596674,1838095,1758579,2232992,4273,334670,23.081280892857155,87.12640053571437,956.7399943963724,62.08491511880143
335,Barddhaman,WEST BENGAL,7717563,3966889,3750674,5247208,32323,1049943,23.444453888888884,87.8150581111111,945.4950718308478,67.99047834141425
334,Birbhum,WEST BENGAL,3502404,1790920,1711484,2158447,5210,333752,24.06389342723,87.65153089201888,955.6451432783151,61.62758493880204
331,Dakshin Dinajpur,WEST BENGAL,1676276,857199,819077,1083685,2518,168069,25.342094363021435,88.69821679819614,955.5272462987008,64.64836339600399
327,Darjiling,WEST BENGAL,1846823,937259,909564,1315585,10943,297176,26.839619571045585,88.33145067024122,970.4510706218879,71.23503443481049
341,Haora,WEST BENGAL,4850029,2500819,2349210,3605206,30751,796953,22.401674174428507,87.99421176968654,939.3762603371135,74.33369986035136
338,Hugli,WEST BENGAL,5519145,2814653,2704492,4078388,31725,965258,22.87929264705881,88.00010264705891,960.8616053204428,73.89528631699294
328,Jalpaiguri,WEST BENGAL,3872846,1983064,1889782,2498780,9322,382500,26.62642031250004,89.04154375000003,952.9606709617037,64.5205102397565
342,Kolkata,WEST BENGAL,4496694,2356766,2139928,3588137,136618,927602,22.550581481481483,88.3527648148148,907.9934113102446,79.79500050481532
332,Maldah,WEST BENGAL,3988845,2051541,1937304,2086432,5357,297716,25.08026802575105,88.17191684549356,944.3164918468605,52.30667022659442
333,Murshidabad,WEST BENGAL,7103807,3627564,3476243,4055834,7951,541169,24.25950655391121,88.16816860465121,958.2857807608632,57.09380899565543
336,Nadia,WEST BENGAL,5167600,2653768,2513832,3480555,12787,623729,23.56410971055088,88.58293034547152,947.268939862113,67.35341357690223
340,Puruliya,WEST BENGAL,2930115,1496996,1433119,1624905,3551,189889,23.254192328767108,86.3968532876713,957.3298793049547,55.455331957960695
330,Uttar Dinajpur,WEST BENGAL,3007134,1551066,1456068,1489667,2883,199307,26.044619165196977,88.23595232216337,938.7530898104917,49.53776585945289
